[{"id":1,"name":"flexibility"},{"id":2,"name":"THX","address_line_1":"33886 Kaia Course","address_line_2":null,"city":"Anikaborough","state":"IA","zip":"05448-9502","longitude":"168.9791","latitude":"-28.5205","neighborhood":"Sleek Granite Salad Belize compressing Naira","website":"https://keaton.info","description":"Quia quia similique dolorem facere aut mollitia. Ut eveniet reiciendis unde facere. Voluptatem voluptas architecto officia. Autem repudiandae deleniti saepe in magnam. Quidem quibusdam ratione omnis id nam eaque. Pariatur sed rerum quia deleniti cum maxime.","hours":"Suite 154","phone_number":"901.518.4166","price_range":"$$$","review_average":null,"review_count":183,"tags":["system","bandwidth","port","microchip","matrix","hard drive","program","port","transmitter","sensor","system","application","bandwidth","program","port","program","feed","feed","transmitter","system","bandwidth","bus","capacitor","alarm","program","firewall","microchip","array","microchip"]},{"id":3,"name":"Global protocol B2C","address_line_1":"506 Wiegand Ports","address_line_2":null,"city":"Lake Goldenshire","state":"ID","zip":"55517-4048","longitude":"113.8399","latitude":"-84.0379","neighborhood":"mission-critical Surinam Dollar Configurable withdrawal","website":"http://danielle.info","description":"Minima molestiae enim aliquam. Vitae iusto et molestiae dolores officiis quas eum. Distinctio est autem et nisi saepe. Natus accusantium libero asperiores dolor animi placeat autem nesciunt eveniet. Non ut sint nobis id.","hours":"Suite 087","phone_number":"521-362-6117 x95998","price_range":"$$$","review_average":null,"review_count":1410,"tags":["driver","bandwidth","transmitter","interface","bandwidth","port","bandwidth","bus","port","alarm","pixel","program","application","system","pixel","protocol","application","array","sensor","pixel","port","matrix","circuit","port","capacitor","port","monitor","microchip","pixel","pixel","transmitter","circuit","array","hard drive","circuit","capacitor","monitor","monitor","interface","feed","interface","driver","matrix","hard drive","microchip","sensor","port","panel","microchip"]},{"id":4,"name":"Toys Landing","address_line_1":"81687 Feest Ridge","address_line_2":"Suite 701","city":"Emmerichfort","state":"OR","zip":"64176-8091","longitude":"-144.5382","latitude":"88.5016","neighborhood":"Marketing","website":"https://eloise.net","description":"Est inventore consequuntur itaque quaerat quisquam quo quasi nisi. Qui numquam doloremque exercitationem nihil aspernatur et vitae voluptate. Aut error velit ut quo. Tempore minima ut quos labore dolor et qui quam.","hours":"Suite 117","phone_number":"529.156.4555","price_range":"$","review_average":null,"review_count":1631,"tags":["firewall","monitor","firewall","feed","port","array","program","interface","hard drive","sensor","system","array","alarm","application","bus","port","pixel","transmitter","matrix","monitor","card","capacitor","alarm","hard drive","microchip","card","interface","capacitor","monitor","feed","driver","panel","microchip","feed","capacitor"]},{"id":5,"name":"Planner Computers Director","address_line_1":"1122 Rodrigo Isle","address_line_2":null,"city":"Samville","state":"SC","zip":"29669-2299","longitude":"28.2068","latitude":"82.0387","neighborhood":"Savings Account Cotton","website":"http://jevon.info","description":"Voluptates vitae sit quas ea minima minus. Vitae dolores praesentium praesentium. Provident deleniti molestiae dolore est modi sed nulla beatae. Consequuntur laborum nemo nemo cupiditate autem dolorem quia suscipit. Iste perferendis suscipit minus et voluptas vitae. Maxime esse aliquid dolor id natus dolor non.","hours":"Apt. 231","phone_number":"110.971.2605","price_range":"$$","review_average":null,"review_count":1075,"tags":["application","firewall","alarm","capacitor","interface","alarm","sensor","bus","bus","capacitor","alarm"]},{"id":6,"name":"Sleek Granite Salad","address_line_1":"9317 MacGyver Forge","address_line_2":null,"city":"Port Rigobertobury","state":"MD","zip":"09107-8455","longitude":"-30.5104","latitude":"-64.4420","neighborhood":"Universal navigate","website":"http://janae.net","description":"Voluptates sit qui eum aut temporibus mollitia est ut ipsam. Quo nobis sit. Sit incidunt voluptatum aliquam dolore qui et debitis distinctio qui. Qui debitis corporis nostrum fugiat aliquid.","hours":"Apt. 140","phone_number":"1-612-468-0488 x8224","price_range":"$$$$$","review_average":null,"review_count":413,"tags":["monitor","program","bus","system","monitor","monitor","application","hard drive","alarm","sensor","driver","bus","circuit","panel","capacitor","monitor","driver","hard drive","system","bandwidth","bandwidth","interface","array","pixel","circuit","hard drive","hard drive","transmitter","card","monitor","hard drive","array"]},{"id":7,"name":"Licensed","address_line_1":"348 Jones Turnpike","address_line_2":"Suite 008","city":"Steuberview","state":"MD","zip":"08247","longitude":"89.1923","latitude":"-56.5775","neighborhood":"Cambridgeshire actuating","website":"http://opal.info","description":"Deserunt nulla aspernatur sint omnis reiciendis nostrum. Sapiente tempora explicabo est omnis corporis ut dignissimos unde aut. Dicta sapiente voluptatum. Expedita est voluptas itaque. Dicta nobis minus at architecto asperiores nobis sed ut quidem. Assumenda cumque debitis.","hours":"Suite 956","phone_number":"996-696-5048","price_range":"$$$$","review_average":null,"review_count":1149,"tags":["program","protocol","circuit"]},{"id":8,"name":"Naira payment productize","address_line_1":"787 Kshlerin Light","address_line_2":null,"city":"Franeckimouth","state":"MD","zip":"53139","longitude":"178.2311","latitude":"-41.7958","neighborhood":"Credit Card Account invoice","website":"https://bria.biz","description":"Dolores quisquam tempore eos dolor voluptates quis dolor. Deserunt recusandae non unde ut at. Est et neque dolorum nemo quibusdam sit nihil voluptatem. Dolore voluptates eligendi quia atque.","hours":"Suite 708","phone_number":"(557) 418-8723","price_range":"","review_average":null,"review_count":1955,"tags":["protocol","matrix","transmitter","application","program","port","alarm","port","bus","matrix","program","panel","sensor"]},{"id":9,"name":"mint green","address_line_1":"094 Karson Cliffs","address_line_2":null,"city":"North Rafael","state":"TX","zip":"80486","longitude":"-177.4755","latitude":"-64.4055","neighborhood":"Global","website":"http://adele.name","description":"Hic atque ea. Odio deleniti molestias laboriosam corrupti modi unde quos. Quo voluptas aut.","hours":"Suite 273","phone_number":"1-515-472-1783 x5018","price_range":"$$","review_average":null,"review_count":135,"tags":["firewall","protocol","monitor","card","capacitor","panel","application","bandwidth","circuit","transmitter","panel","protocol","capacitor","driver","panel","matrix"]},{"id":10,"name":"Cheese Generic","address_line_1":"7460 Zelda Alley","address_line_2":"Apt. 412","city":"Danielafort","state":"AK","zip":"89701","longitude":"74.5774","latitude":"-80.6765","neighborhood":"Checking Account Integrated ADP Fresh","website":"https://taya.name","description":"Ad non soluta enim vitae voluptate voluptatibus pariatur. Asperiores enim vitae ipsum ut eos sapiente sit tenetur et. Et tempora optio autem aut sint et quisquam adipisci provident.","hours":"Apt. 795","phone_number":"1-149-427-0322","price_range":"$$$$$","review_average":null,"review_count":1490,"tags":["microchip","pixel","array","driver","firewall","monitor","pixel","bandwidth","circuit","bandwidth","program","capacitor","panel","monitor"]},{"id":11,"name":"tertiary Designer compress","address_line_1":"625 Torp Hill","address_line_2":null,"city":"Jacefurt","state":"MD","zip":"65306","longitude":"-74.0797","latitude":"35.0003","neighborhood":"Licensed matrix HTTP syndicate","website":"http://elinor.org","description":"Minus deserunt officia. Molestias qui vel. Dolorem minima omnis est ut minima esse nihil. Culpa et voluptatem sint dolorum distinctio aut.","hours":"Apt. 410","phone_number":"256.201.3828","price_range":"$$$$$","review_average":null,"review_count":1301,"tags":["circuit","interface","pixel","array","bus","sensor","program","panel","program"]},{"id":12,"name":"approach Minnesota","address_line_1":"8184 Kayleigh Land","address_line_2":null,"city":"Eliasland","state":"MT","zip":"14835-9348","longitude":"122.2162","latitude":"33.1481","neighborhood":"Fish","website":"https://kobe.biz","description":"Quam nulla sapiente voluptate sit perspiciatis. Repellendus qui distinctio consequatur dolor. Omnis autem facere ex et ut. Quia qui et tempora quia sunt rerum.","hours":"Apt. 245","phone_number":"(760) 794-5961 x63874","price_range":"$$$$","review_average":null,"review_count":548,"tags":["firewall","transmitter","application"]},{"id":13,"name":"Central Customer Persistent","address_line_1":"898 Pfannerstill Forks","address_line_2":"Apt. 803","city":"Travishaven","state":"MO","zip":"76422","longitude":"173.0016","latitude":"-31.8183","neighborhood":"Villages JSON Tools","website":"https://gavin.name","description":"Ut sint impedit quas quam aut. Soluta quaerat natus voluptatibus sint. Aperiam voluptatem praesentium vel aut rem aut saepe facere.","hours":"Apt. 217","phone_number":"(742) 986-7829 x457","price_range":"$$$","review_average":null,"review_count":653,"tags":["transmitter","interface","microchip","pixel","port","firewall","sensor","array"]},{"id":14,"name":"back-end 1080p","address_line_1":"0839 Trycia Pike","address_line_2":null,"city":"Port Kelsi","state":"IN","zip":"21131","longitude":"19.2739","latitude":"67.4156","neighborhood":"driver","website":"https://thelma.com","description":"Nesciunt culpa dolores doloribus. Voluptates soluta aut hic adipisci. Molestiae enim dolores. Qui eos accusamus. Molestias dolore cupiditate rerum delectus nobis corporis sit.","hours":"Apt. 322","phone_number":"(231) 299-9735","price_range":"","review_average":null,"review_count":1594,"tags":["monitor","matrix","program","microchip","transmitter","port","pixel","interface","card","transmitter","program","port","system","alarm","microchip","program","driver"]},{"id":15,"name":"Sleek Fresh Hat Directives","address_line_1":"8315 Kacie Prairie","address_line_2":null,"city":"Granvillefort","state":"PA","zip":"46002-8150","longitude":"-123.4895","latitude":"75.0964","neighborhood":"strategize mobile iterate system","website":"http://sasha.com","description":"Quas voluptas quam et totam commodi nulla. Natus exercitationem et est autem. Quas sint qui quia. Nisi aspernatur et quas aspernatur tenetur sed et. Cumque in deleniti quaerat.","hours":"Apt. 383","phone_number":"750.136.3743 x2722","price_range":"$$","review_average":null,"review_count":562,"tags":["program","monitor","hard drive","capacitor","panel","microchip","pixel","bus","driver","bus","bandwidth","hard drive"]},{"id":16,"name":"Dobra Corporate Jordan","address_line_1":"10117 Muller Fall","address_line_2":"Suite 005","city":"Crooksmouth","state":"IA","zip":"46971","longitude":"98.3997","latitude":"-23.3533","neighborhood":"extensible Auto Loan Account Analyst","website":"https://addie.com","description":"Corrupti illo eos pariatur non recusandae consectetur eaque autem vel. Temporibus laborum iste voluptatem eos. Quidem debitis rem cupiditate assumenda est eius nisi eos ducimus.","hours":"Suite 839","phone_number":"(966) 837-4578","price_range":"$$$$$","review_average":null,"review_count":857,"tags":["matrix","circuit","capacitor","system","driver","hard drive","system","feed","microchip","program","array","bandwidth","sensor","feed","protocol","hard drive","microchip","protocol","application","hard drive","matrix","monitor","driver","program","hard drive","bus","circuit","monitor","firewall","card","array","microchip","sensor","firewall","monitor"]},{"id":17,"name":"Security Rubber Bacon","address_line_1":"95619 Stroman Mission","address_line_2":null,"city":"East Jackyfort","state":"VT","zip":"27806-9324","longitude":"-106.5643","latitude":"38.2050","neighborhood":"Quality Multi-lateral","website":"https://madonna.com","description":"Magni repellat est impedit dolorum omnis similique. Nulla quidem consequuntur. Deserunt explicabo non quia non voluptatem. Impedit qui provident earum voluptas officiis quisquam sed nam iusto.","hours":"Suite 261","phone_number":"1-584-770-0130","price_range":"$$$$$","review_average":null,"review_count":1028,"tags":["card","transmitter","protocol","panel","monitor","feed","capacitor","panel","alarm","bus","matrix","array","program","feed","alarm","interface","hard drive","port","bus","array","sensor","program","array","firewall","driver","transmitter","microchip","capacitor","program","panel","port"]},{"id":18,"name":"Chicken payment","address_line_1":"2013 Walsh Viaduct","address_line_2":null,"city":"New Bonitaburgh","state":"PA","zip":"66807","longitude":"-126.2856","latitude":"5.0342","neighborhood":"Tasty payment hard drive Wooden","website":"http://jairo.info","description":"Porro corrupti qui quae dolores voluptatem inventore vel. Nam culpa ipsa ipsa corporis. Molestias consequuntur et totam qui sed eum. Quaerat dolores vero id voluptates dolorem. Et ipsa tempore. Et repellat facere molestiae nostrum est vel qui.","hours":"Suite 709","phone_number":"501.157.0278 x16841","price_range":"$$","review_average":null,"review_count":1158,"tags":["pixel","driver","card","system"]},{"id":19,"name":"Sausages archive","address_line_1":"5078 Lavada Meadow","address_line_2":"Suite 187","city":"Schroederview","state":"AL","zip":"50977","longitude":"63.2932","latitude":"-35.2071","neighborhood":"interfaces Highway Intuitive","website":"https://marietta.name","description":"Voluptatem rerum nisi soluta. Id quia nesciunt ut nemo aliquam ut tempore. Perferendis pariatur nulla illum nostrum. Dolor autem et rerum voluptas ratione eius. Repudiandae quibusdam non aut praesentium quod laudantium reprehenderit cumque. Illum quas enim ut et ex quaerat in quisquam aut.","hours":"Apt. 778","phone_number":"1-915-084-9126 x99741","price_range":"","review_average":null,"review_count":1139,"tags":["interface","protocol","sensor","transmitter","interface","matrix","system","capacitor","array","capacitor","panel","firewall","panel","matrix","panel","sensor","alarm","interface","firewall","monitor","bandwidth","bus","monitor","microchip","alarm","microchip","circuit","protocol","protocol","program"]},{"id":20,"name":"architectures","address_line_1":"7997 Mueller Squares","address_line_2":null,"city":"East Jacinto","state":"ID","zip":"55894-0660","longitude":"-115.7255","latitude":"-65.1468","neighborhood":"Iceland Krona Iranian Rial Triple-buffered Auto Loan Account","website":"https://kaylin.info","description":"Quia deleniti ut inventore consectetur non laboriosam sed voluptas et. Neque voluptas nihil quia aut qui et deleniti similique. Voluptatem pariatur aliquid doloribus aut pariatur facere.","hours":"Apt. 436","phone_number":"799-141-2498 x5351","price_range":"$$","review_average":null,"review_count":718,"tags":["circuit","application","pixel","sensor","capacitor","firewall","hard drive","card","transmitter","pixel","card","alarm","hard drive","circuit","alarm","matrix","interface","array","feed","system","transmitter","card","driver","transmitter"]},{"id":21,"name":"Buckinghamshire withdrawal Gardens","address_line_1":"36763 Crist Street","address_line_2":null,"city":"New Yasmine","state":"NE","zip":"46759-8706","longitude":"-19.3131","latitude":"-81.8846","neighborhood":"Granite Refined Wooden Ball","website":"http://vesta.biz","description":"Doloremque ipsum nihil animi dolor deleniti vitae et illum. Qui vitae quibusdam quia fugiat et. Nemo asperiores assumenda harum repellendus eius atque ut dolorem sit. Ratione facere nihil modi non impedit dolor enim et.","hours":"Suite 300","phone_number":"(171) 384-7921 x971","price_range":"$","review_average":null,"review_count":1440,"tags":["hard drive","panel","alarm","system","alarm"]},{"id":22,"name":"Optimized Generic bypass","address_line_1":"473 Bergstrom Street","address_line_2":"Apt. 192","city":"South Rodolfoview","state":"MA","zip":"66052-2765","longitude":"-161.7534","latitude":"-80.3531","neighborhood":"quantifying Granite Security","website":"https://louisa.name","description":"Dolores doloribus debitis vel et quae non. Earum voluptas animi omnis dolorum est quo possimus molestiae dolorum. Quod necessitatibus sed minima accusantium. Hic qui rerum eum molestiae accusamus rerum excepturi. Aut et voluptatibus necessitatibus inventore mollitia voluptatibus. Illum esse quod sit provident eaque.","hours":"Suite 583","phone_number":"(934) 047-5049","price_range":"$","review_average":null,"review_count":1532,"tags":["bus","bandwidth"]},{"id":23,"name":"Licensed Frozen Gloves New Mexico Vision-oriented","address_line_1":"260 Ignacio Mountains","address_line_2":null,"city":"West Gaetano","state":"VT","zip":"43634-9410","longitude":"71.0262","latitude":"-36.7067","neighborhood":"hack XSS productivity","website":"https://juliana.name","description":"Dolores earum aliquam. Omnis ut eveniet earum qui. Et ratione praesentium et in.","hours":"Suite 358","phone_number":"512-235-6007 x607","price_range":"$","review_average":null,"review_count":1710,"tags":["monitor","card","feed","bandwidth","protocol","microchip","panel","program","alarm","circuit"]},{"id":24,"name":"parse","address_line_1":"542 Matilde Streets","address_line_2":null,"city":"Salliechester","state":"IN","zip":"07523","longitude":"153.9406","latitude":"19.4908","neighborhood":"Administrator index primary Directives","website":"https://dante.org","description":"Tempora eum deleniti et aut reiciendis quia qui. Vel iste nesciunt sint ipsum harum. Non voluptatum quia expedita officiis.","hours":"Apt. 682","phone_number":"252-565-8377","price_range":"$$$$","review_average":null,"review_count":1523,"tags":["program","microchip"]},{"id":25,"name":"redundant","address_line_1":"8516 Buster Club","address_line_2":"Suite 763","city":"Lake Uriel","state":"MA","zip":"45049","longitude":"-129.4993","latitude":"33.5086","neighborhood":"CFP Franc Diverse Team-oriented Implementation","website":"https://clifton.name","description":"Ea sint totam sunt in aspernatur. Laborum aliquam quo sint consectetur consequatur repudiandae ut. Sit sint a error quas repudiandae corporis ea labore. Officia numquam sunt omnis consequatur qui eligendi adipisci nesciunt dignissimos.","hours":"Suite 976","phone_number":"025.599.6819 x16659","price_range":"$","review_average":null,"review_count":523,"tags":["capacitor","interface","array","firewall","interface","firewall","firewall","alarm","card","array","alarm","firewall","port","capacitor","capacitor","port","sensor","transmitter","capacitor","capacitor","application","capacitor","firewall","circuit","panel","transmitter","alarm","driver","array","alarm","microchip","capacitor","port","protocol","feed","microchip","monitor","circuit","interface","array","hard drive","hard drive"]},{"id":26,"name":"Games backing up","address_line_1":"0844 Hettie Mission","address_line_2":null,"city":"New Demarco","state":"NM","zip":"58387-6997","longitude":"103.0404","latitude":"24.0768","neighborhood":"payment National Money Market Account","website":"https://nikko.com","description":"Est earum rerum enim consequuntur. Vitae nesciunt consequatur quos molestiae molestias magnam et aliquam deserunt. Vel id reiciendis dolores velit sint tenetur eos ex.","hours":"Apt. 360","phone_number":"339-002-2419","price_range":"$$$","review_average":null,"review_count":1313,"tags":["bandwidth","pixel","driver","hard drive","bandwidth","alarm","bus","protocol","microchip","bus","circuit","monitor","microchip","alarm","alarm","matrix","transmitter","feed","bandwidth","interface","hard drive","protocol","panel","feed","transmitter","panel","hard drive","feed","bandwidth","matrix","driver","matrix","pixel","transmitter","bus","feed","protocol","firewall","capacitor","hard drive","alarm"]},{"id":27,"name":"Corners Egyptian Pound dynamic","address_line_1":"912 Mazie Cape","address_line_2":null,"city":"Wittingbury","state":"AL","zip":"47039-2061","longitude":"134.1781","latitude":"-86.4842","neighborhood":"Fresh payment Cambridgeshire","website":"http://marguerite.info","description":"Est nihil quis inventore dignissimos. Ea fugiat debitis sunt. Itaque provident fuga eligendi consequuntur voluptatum recusandae. Ducimus voluptatem aut quod cupiditate qui. Dolor iste non quidem quaerat aperiam. Voluptas exercitationem adipisci enim omnis aut distinctio.","hours":"Suite 669","phone_number":"178.302.2308 x0466","price_range":"","review_average":null,"review_count":1077,"tags":["driver","sensor","hard drive","driver","interface","program","application","feed","alarm","circuit","system","protocol","bandwidth","system","application","sensor","array","protocol","system","capacitor","protocol","feed","panel","driver","hard drive","pixel","panel","application","matrix","application","sensor","protocol","program","panel","interface","application","protocol","alarm","panel","program","bus","circuit"]},{"id":28,"name":"Sleek Money Market Account","address_line_1":"35449 Ritchie Springs","address_line_2":"Suite 539","city":"Ernserville","state":"IA","zip":"15421-1733","longitude":"110.8879","latitude":"64.8547","neighborhood":"synergy infrastructures Utah","website":"https://leda.com","description":"Eligendi non amet ut quo sed quae ad. Est aliquam et nulla dolore. Rem quidem deleniti quam aut maiores molestiae. Consequatur rem pariatur veritatis voluptatum dicta totam neque. Eos dolores dicta iure voluptas. Ratione nihil et dicta architecto necessitatibus id rerum.","hours":"Apt. 840","phone_number":"405-471-5046 x7080","price_range":"$$$$","review_average":null,"review_count":1484,"tags":["transmitter","monitor","program","capacitor","circuit","port","port","bandwidth","system","application","capacitor","bandwidth","monitor","application","driver","program","bus","matrix","monitor","sensor","system","bus","pixel","panel","firewall","interface","array","circuit","system","bus","transmitter","circuit","alarm","program","panel","capacitor","driver","card","system","protocol"]},{"id":29,"name":"JBOD connect","address_line_1":"53683 Kris Corner","address_line_2":null,"city":"North Pearl","state":"CT","zip":"93666-8411","longitude":"-108.1566","latitude":"-16.6506","neighborhood":"bluetooth","website":"https://antwon.com","description":"Corporis dolorem repudiandae quod id fuga qui tempora itaque. Earum qui sunt aliquid distinctio ea. Doloremque ab aut omnis.","hours":"Suite 038","phone_number":"(158) 244-8572 x55067","price_range":"$$","review_average":null,"review_count":189,"tags":["driver","circuit","capacitor","microchip","panel","bus","hard drive","card","protocol","interface","protocol","pixel","firewall","monitor","matrix","circuit","circuit"]},{"id":30,"name":"architectures website Burg","address_line_1":"8419 Nader Glens","address_line_2":null,"city":"Port Nathanaelmouth","state":"WY","zip":"39552","longitude":"-83.4082","latitude":"-52.0176","neighborhood":"invoice","website":"http://jason.org","description":"Aut ut exercitationem aut cumque deserunt itaque. Rem enim quo ea. Illo alias illo enim itaque.","hours":"Apt. 110","phone_number":"1-209-739-4454","price_range":"","review_average":null,"review_count":1137,"tags":["application","sensor","panel","protocol","card","matrix","port","pixel","protocol","bus","alarm","array","matrix","firewall","system","pixel","alarm","matrix","hard drive","bandwidth","hard drive","transmitter","bandwidth","circuit","protocol","matrix","monitor","monitor","protocol","transmitter","array","transmitter","application","bandwidth","bus","transmitter","array","alarm","sensor","bandwidth","program"]},{"id":31,"name":"RSS capacitor supply-chains","address_line_1":"1570 Kassulke Bypass","address_line_2":"Suite 707","city":"Williemouth","state":"UT","zip":"80770","longitude":"-117.0784","latitude":"82.7786","neighborhood":"Refined Frozen Ball primary Chicken Incredible Cotton Car","website":"http://kira.biz","description":"Commodi aliquam accusamus ducimus fuga. Rerum ut fugit nihil fugit illum cupiditate iusto. Autem amet est est expedita cum eos blanditiis fuga. Labore adipisci quia ad quia adipisci cum et at.","hours":"Suite 433","phone_number":"1-487-681-5538","price_range":"$$$$$","review_average":null,"review_count":1915,"tags":["bandwidth","transmitter","port","card","circuit","feed","pixel","sensor","array","firewall","pixel","system","application","bandwidth","interface","driver","pixel","circuit","array","port","array","panel","circuit","firewall","transmitter","circuit","program","microchip","transmitter","matrix","bus","bandwidth","port","driver","hard drive","hard drive","alarm","protocol"]},{"id":32,"name":"responsive","address_line_1":"01308 Lockman Mill","address_line_2":null,"city":"West Jamesonview","state":"IL","zip":"45430-5179","longitude":"-141.9475","latitude":"-68.7799","neighborhood":"enhance virtual Buckinghamshire enterprise","website":"https://shyanne.name","description":"Similique qui ipsum culpa vero culpa. Ut est laborum dolore asperiores ut. Rerum consequatur cum et.","hours":"Suite 341","phone_number":"220-499-0834 x4905","price_range":"$$","review_average":null,"review_count":1257,"tags":["bandwidth","bandwidth","port","protocol"]},{"id":33,"name":"Beauty virtual Nevada","address_line_1":"011 Ashly Rapids","address_line_2":null,"city":"Arnoside","state":"FL","zip":"92174","longitude":"-20.0381","latitude":"-23.3808","neighborhood":"Avon","website":"https://marcia.info","description":"Rem sunt tempora voluptas corrupti quia suscipit. Cum voluptas non magni molestiae consequatur. Totam assumenda soluta atque exercitationem sunt ea modi ipsa ipsum. Voluptatum eveniet dolorem sit. Explicabo est voluptas quas id. Iusto repellat nemo cupiditate autem.","hours":"Apt. 762","phone_number":"(474) 012-2700","price_range":"$$$$","review_average":null,"review_count":1204,"tags":["monitor","bus","protocol","interface","matrix"]},{"id":34,"name":"Tunnel","address_line_1":"27166 Jannie Well","address_line_2":"Suite 575","city":"Port Amelieshire","state":"LA","zip":"44100-8331","longitude":"45.9875","latitude":"-70.2099","neighborhood":"Clothing","website":"https://elvis.org","description":"Ut repudiandae velit esse inventore distinctio mollitia assumenda neque consequuntur. Quis molestiae sunt perferendis aut. Nobis omnis quia.","hours":"Apt. 170","phone_number":"774.791.1349 x8028","price_range":"","review_average":null,"review_count":66,"tags":["capacitor","bus","protocol","port","port","driver","application","system","card","transmitter","panel","array","hard drive","port","program","bus","panel","sensor","protocol","panel","microchip","bus","alarm","port","alarm","microchip","program","firewall","circuit","panel","bus","matrix","circuit","bus","protocol","bus","capacitor"]},{"id":35,"name":"Unbranded Frozen Shoes Prairie web-enabled","address_line_1":"90369 Glen Drive","address_line_2":null,"city":"New Adam","state":"NM","zip":"06406-2544","longitude":"-119.5257","latitude":"1.2049","neighborhood":"bi-directional Forward Small Frozen Keyboard bluetooth","website":"http://ewell.info","description":"Aut esse soluta officiis. Omnis eaque enim et omnis. Consequatur iure pariatur quia minima dolore pariatur dolorem. Cumque omnis sunt. Qui praesentium quia doloremque sed. Sit et deserunt soluta.","hours":"Suite 480","phone_number":"1-453-277-6071 x12815","price_range":"$$$","review_average":null,"review_count":1389,"tags":["bus","transmitter","application","protocol","firewall","panel","sensor","microchip","protocol","feed","firewall","program","capacitor","hard drive","application","alarm","protocol","bus"]},{"id":36,"name":"Bacon","address_line_1":"24341 Harber Estates","address_line_2":null,"city":"New Annalise","state":"KY","zip":"78637","longitude":"69.7180","latitude":"-24.6282","neighborhood":"Wyoming","website":"http://darryl.info","description":"Quas quam quo natus nobis. Laboriosam est excepturi aut cumque mollitia molestiae. Hic id id corporis ut non nam nihil placeat delectus. Dolores velit ad tempora iure consequatur.","hours":"Suite 191","phone_number":"(973) 838-2583","price_range":"$$","review_average":null,"review_count":615,"tags":["capacitor","bandwidth","card","circuit","program","circuit","driver","system","card","interface","bandwidth","matrix","bus"]},{"id":37,"name":"calculating Communications","address_line_1":"93212 Greta Pike","address_line_2":"Suite 221","city":"Corkerybury","state":"NC","zip":"55308","longitude":"179.1843","latitude":"56.8021","neighborhood":"Cove panel","website":"http://cedrick.info","description":"Consequatur minima voluptatibus mollitia eligendi corporis exercitationem nisi dolor. Beatae odit sed quo vel eum. Sit ut nulla cupiditate praesentium dolorum. Vero harum et consectetur odit exercitationem consequatur.","hours":"Apt. 810","phone_number":"(120) 344-8182","price_range":"$$$$","review_average":null,"review_count":634,"tags":["bus","array","array","transmitter","interface","card","pixel","interface","bandwidth","hard drive","monitor","transmitter","array","monitor","interface","microchip","monitor","sensor","card","bandwidth","matrix","card","feed","transmitter","hard drive","matrix","pixel","driver","feed","interface","protocol","bus","firewall","feed","panel","bandwidth","monitor","card","feed","bus","panel","firewall","monitor","capacitor","interface","bus","capacitor","hard drive","port"]},{"id":38,"name":"Investment Account Personal Loan Account","address_line_1":"138 Hoeger Squares","address_line_2":null,"city":"East Jovanmouth","state":"TN","zip":"63792-0575","longitude":"24.8037","latitude":"13.5969","neighborhood":"composite secondary Field AGP","website":"http://yessenia.org","description":"Ratione autem ut. Accusamus repellat aut nihil velit molestias quia dicta. Ex ea ad odio iure. Commodi quia laboriosam officia beatae soluta eaque accusamus velit. Ipsum molestiae ducimus non architecto aut adipisci ad rerum consectetur. Quas debitis saepe ut numquam veniam et.","hours":"Suite 501","phone_number":"(526) 672-5799 x47636","price_range":"$$$","review_average":null,"review_count":811,"tags":["program","hard drive","bandwidth","interface","program","driver","monitor","panel","pixel","sensor"]},{"id":39,"name":"Implementation","address_line_1":"30180 Cathryn Greens","address_line_2":null,"city":"East Ashlymouth","state":"WV","zip":"45630-7147","longitude":"-139.6181","latitude":"17.1133","neighborhood":"Switchable Granite Tasty Assurance","website":"https://cora.info","description":"Autem autem corrupti laudantium. Et sit dignissimos est sint voluptas maxime aliquam ducimus odio. Quis et et. Consequatur ea excepturi magnam ut incidunt ut vitae architecto.","hours":"Apt. 238","phone_number":"(764) 860-2959 x930","price_range":"$$$","review_average":null,"review_count":1701,"tags":["program","pixel","transmitter","interface","program","interface","circuit","application","interface","driver","sensor","system","system","matrix","panel","array","card","alarm","port","matrix","monitor"]},{"id":40,"name":"Concrete","address_line_1":"7044 Leffler Estates","address_line_2":"Apt. 289","city":"East Hope","state":"KS","zip":"00940","longitude":"-54.3018","latitude":"-48.3036","neighborhood":"Identity calculate Team-oriented","website":"https://nasir.biz","description":"Veritatis ut tempore nesciunt exercitationem et. Molestias nesciunt delectus blanditiis. Adipisci non rerum sit aut quia cum voluptas. Animi est eos. Qui velit suscipit.","hours":"Apt. 091","phone_number":"(844) 415-7906 x205","price_range":"$$$$$","review_average":null,"review_count":408,"tags":["bus","firewall","bus","bandwidth","microchip","sensor","matrix","driver","sensor","bus","hard drive","circuit","card","firewall","driver","program","firewall","hard drive","bus","array","circuit","panel","bus","bus","transmitter","feed","panel","interface"]},{"id":41,"name":"Chief Sleek","address_line_1":"258 Runolfsdottir Stravenue","address_line_2":null,"city":"Kreigerchester","state":"UT","zip":"72533","longitude":"78.6033","latitude":"76.6169","neighborhood":"open-source","website":"https://walker.biz","description":"Nostrum nesciunt voluptatibus dolores. Est cupiditate eaque eum. Ab libero quia.","hours":"Apt. 645","phone_number":"1-576-139-0950 x8724","price_range":"","review_average":null,"review_count":1277,"tags":["card","port","transmitter","program","circuit","hard drive","firewall","interface","card","protocol","transmitter","bus","alarm","driver","program","interface","pixel","capacitor","bandwidth","monitor","panel","protocol","microchip","alarm","feed","application","driver","program","driver"]},{"id":42,"name":"Fantastic","address_line_1":"276 Thiel Hills","address_line_2":null,"city":"South Makenna","state":"AK","zip":"02714","longitude":"-112.4677","latitude":"-21.5702","neighborhood":"deposit withdrawal Boliviano Mvdol Multi-lateral","website":"https://coty.biz","description":"Ullam aut sed et hic et. Ipsum architecto in maiores aut quas. Nostrum ducimus nihil ullam ratione facere rem repellat ipsam. Voluptatibus laboriosam et dolor. Est aut beatae quasi iusto voluptatem.","hours":"Apt. 962","phone_number":"371-699-7001 x604","price_range":"$$$$","review_average":null,"review_count":1558,"tags":["sensor","card","pixel","protocol","monitor","port","port","system","card","port","hard drive","pixel","array","port","monitor","sensor","capacitor","protocol","sensor","transmitter"]},{"id":43,"name":"Incredible synthesizing El Salvador","address_line_1":"1945 Kertzmann Tunnel","address_line_2":"Suite 679","city":"Gottliebview","state":"RI","zip":"53989","longitude":"48.1971","latitude":"14.7637","neighborhood":"engage invoice","website":"https://americo.net","description":"Harum illum illum expedita laborum omnis vitae rerum ullam est. Saepe ex explicabo doloremque sunt occaecati quia quidem perspiciatis. Aut est corporis dignissimos ipsum nesciunt aliquam ut aut natus.","hours":"Apt. 645","phone_number":"1-313-317-0198","price_range":"$$$","review_average":null,"review_count":1082,"tags":["alarm","firewall","port","card","hard drive","driver","protocol"]},{"id":44,"name":"Horizontal Accounts","address_line_1":"30133 Eugene Drive","address_line_2":null,"city":"Port Alexys","state":"CT","zip":"57794-8465","longitude":"46.1008","latitude":"0.0883","neighborhood":"Danish Krone Savings Account","website":"https://ellis.org","description":"Fugiat voluptas asperiores. Ipsum suscipit architecto voluptatem asperiores est temporibus. Hic omnis distinctio et possimus eveniet quis illo qui hic. Beatae pariatur qui numquam placeat eveniet dolores est cum nostrum.","hours":"Apt. 828","phone_number":"(909) 165-8226 x148","price_range":"$$$","review_average":null,"review_count":1759,"tags":["pixel","interface","bus","monitor","matrix","monitor","program","bandwidth","system","firewall","bus","bandwidth","pixel","pixel","alarm","circuit","matrix","circuit","panel","hard drive","monitor","system","capacitor","bus","sensor","microchip","monitor","transmitter","driver","circuit","application","port","port","protocol","capacitor","capacitor","program","application","sensor","microchip","sensor","driver","matrix"]},{"id":45,"name":"Wooden Manager port","address_line_1":"4307 Abernathy Key","address_line_2":null,"city":"Stehrstad","state":"NM","zip":"14321-5721","longitude":"134.7786","latitude":"-65.5630","neighborhood":"Lodge Multi-tiered","website":"http://myra.com","description":"Deserunt incidunt qui facere. Est quia voluptates eligendi molestiae. Praesentium consequatur nisi vel et voluptatem. Molestias amet dolor dolores expedita et asperiores aut qui illum.","hours":"Apt. 955","phone_number":"(645) 191-9095","price_range":"$$$","review_average":null,"review_count":82,"tags":["port","alarm","capacitor","pixel","bus","array","card","sensor","panel","alarm","card","sensor","system","alarm","panel","firewall","interface","alarm","panel","circuit","matrix","driver","port","sensor","capacitor","hard drive","feed","bandwidth","circuit","protocol","circuit","port","bus","program","feed","feed","matrix","sensor","transmitter","application","bandwidth","alarm","bandwidth","sensor","driver","alarm","panel","interface"]},{"id":46,"name":"pixel architect","address_line_1":"1283 Ortiz Knolls","address_line_2":"Suite 104","city":"North Kathrynberg","state":"OK","zip":"91066-3434","longitude":"105.0609","latitude":"-50.4414","neighborhood":"Associate killer architect","website":"http://deven.org","description":"Molestias in praesentium enim aspernatur et ex nisi rerum. Nesciunt et molestias. Iure distinctio officia corrupti iusto asperiores. Voluptatum quaerat quia voluptatem omnis. Et molestiae et nihil aut voluptatem quidem qui placeat consequatur.","hours":"Apt. 555","phone_number":"852-896-4160 x6657","price_range":"$$$","review_average":null,"review_count":1998,"tags":["interface","application","program","array","transmitter","interface","pixel","microchip","system","system","circuit","array","circuit","matrix","array"]},{"id":47,"name":"HDD intranet Bedfordshire","address_line_1":"671 Waino Brooks","address_line_2":null,"city":"Ubaldostad","state":"MO","zip":"58685-0855","longitude":"74.2684","latitude":"65.5788","neighborhood":"haptic Paradigm Canadian Dollar Applications","website":"https://norwood.biz","description":"Aut amet qui et. Qui est expedita eos dolores quas. Esse non aut. Eius molestias ullam voluptas pariatur est nisi et et.","hours":"Apt. 914","phone_number":"852-248-8662 x0029","price_range":"$$","review_average":null,"review_count":1957,"tags":["matrix","monitor","system","pixel","application","sensor","interface","alarm"]},{"id":48,"name":"teal product","address_line_1":"074 VonRueden Hollow","address_line_2":null,"city":"Towneville","state":"MO","zip":"27326-3296","longitude":"-129.6703","latitude":"61.4681","neighborhood":"primary ability zero defect","website":"https://geovany.name","description":"Dicta sit quas eius ea omnis quia. Cumque rerum aut quod dolorem dolorem quae non dolorem reprehenderit. Fugiat numquam impedit. Quis labore asperiores alias minus error est qui iure. Et iusto quam architecto. Natus et sapiente libero et pariatur eveniet commodi omnis nisi.","hours":"Apt. 301","phone_number":"512-245-4941","price_range":"$$","review_average":null,"review_count":1253,"tags":["sensor","firewall","circuit","pixel","sensor","transmitter","application","matrix","panel","circuit","program","alarm","capacitor","firewall","protocol","bandwidth","protocol","interface","system","card","card","matrix","feed","protocol","port","microchip","system","card","pixel","panel","array","protocol","protocol","driver","hard drive","sensor","system","microchip","port","pixel","alarm","capacitor","microchip","bus","alarm","alarm"]},{"id":49,"name":"Electronics Tokelau","address_line_1":"4774 Tate Path","address_line_2":"Apt. 468","city":"New Olgashire","state":"VT","zip":"58438","longitude":"-110.3827","latitude":"-24.6314","neighborhood":"Computers cross-media","website":"http://ardith.info","description":"Voluptas et impedit fugiat aut tempora iste doloribus tempora ducimus. Quibusdam maiores maiores sed qui consequatur possimus dicta. Debitis dicta veniam. Modi quae ut. Qui et assumenda. Eos sed quasi id accusantium tempore aut.","hours":"Suite 126","phone_number":"494.539.0204","price_range":"","review_average":null,"review_count":1583,"tags":["protocol","circuit","pixel","application","matrix","bandwidth","system","feed","firewall","port","monitor","bandwidth","alarm","sensor","interface","pixel","sensor","monitor","application","program","firewall","pixel","card","microchip","system","capacitor","capacitor","pixel","pixel","monitor","monitor","interface"]},{"id":50,"name":"Checking Account virtual","address_line_1":"4480 O'Hara Grove","address_line_2":null,"city":"North Anitaberg","state":"NM","zip":"82348-3889","longitude":"12.9728","latitude":"-12.3345","neighborhood":"uniform distributed system","website":"https://jayde.net","description":"Omnis labore voluptatem. Aut iusto odio natus. Omnis magni maxime maxime.","hours":"Suite 886","phone_number":"840-189-4636 x02695","price_range":"$$$$$","review_average":null,"review_count":809,"tags":["capacitor","pixel","hard drive","sensor","alarm","firewall","sensor","protocol","sensor","bandwidth","panel","sensor","firewall","protocol"]},{"id":51,"name":"Borders capacitor","address_line_1":"6780 Georgiana Ways","address_line_2":null,"city":"Juvenalshire","state":"NH","zip":"03311","longitude":"43.8333","latitude":"9.0346","neighborhood":"Hat CSS end-to-end Automotive","website":"https://enoch.name","description":"Corrupti doloremque ipsum ex nihil alias molestias. Et animi veniam quisquam alias aut accusantium. Odit quo veritatis ea dolor sit sunt et et pariatur.","hours":"Suite 818","phone_number":"1-848-729-4302","price_range":"$$$$","review_average":null,"review_count":731,"tags":["program","array","bandwidth","panel","panel","microchip"]},{"id":52,"name":"Personal Loan Account","address_line_1":"93789 Kristin Inlet","address_line_2":"Suite 917","city":"New Jolie","state":"NE","zip":"68659","longitude":"116.8806","latitude":"35.0101","neighborhood":"Handmade Metal Shoes Mobility Falls Plastic","website":"http://lila.info","description":"Temporibus magnam quod excepturi voluptatem culpa cumque. Dignissimos velit voluptate iure sit accusamus in repellat. Sint molestiae a cupiditate et exercitationem eligendi. Distinctio eos molestias rem unde rerum earum et. Natus nostrum quia quo voluptate.","hours":"Suite 245","phone_number":"672.731.4141 x856","price_range":"$$$","review_average":null,"review_count":477,"tags":["monitor","driver","microchip","alarm","bandwidth","application","card","microchip","firewall","pixel","monitor","pixel","card"]},{"id":53,"name":"copy Secured Handcrafted","address_line_1":"0736 Wallace Heights","address_line_2":null,"city":"Boyleborough","state":"WA","zip":"07639","longitude":"123.6942","latitude":"-71.2373","neighborhood":"Cotton Focused Colombian Peso Unidad de Valor Real","website":"http://sabryna.net","description":"Enim corporis recusandae nemo voluptate rerum et praesentium at voluptatem. Qui accusamus qui aut officia iste. Adipisci quis odit incidunt id in. Id quam eaque fugit ipsum quam assumenda quibusdam laboriosam. Delectus explicabo deleniti vero nam sint necessitatibus.","hours":"Apt. 280","phone_number":"122-322-0699","price_range":"$$$","review_average":null,"review_count":1254,"tags":["interface","program","hard drive","sensor","sensor","port","protocol","port","bandwidth","monitor","circuit","system","panel","bus","program","application","protocol","circuit","feed","circuit","card","sensor","array","monitor","circuit","system","sensor","interface"]},{"id":54,"name":"Michigan","address_line_1":"9585 Kuhic Estates","address_line_2":null,"city":"South Jocelynberg","state":"WA","zip":"13562","longitude":"92.4728","latitude":"-19.6975","neighborhood":"Auto Loan Account supply-chains analyzing process improvement","website":"https://rodolfo.com","description":"Non similique itaque praesentium quia voluptatem et non. Nostrum blanditiis non qui ab sed. Dignissimos minima aut aliquam. Accusamus eum velit nulla dicta. Suscipit reprehenderit placeat et nihil eligendi. Dolor numquam minima aut soluta mollitia quidem odio laborum tempore.","hours":"Apt. 386","phone_number":"(516) 412-2107 x7977","price_range":"$$","review_average":null,"review_count":1335,"tags":["card","bandwidth","circuit","port","capacitor","program","firewall"]},{"id":55,"name":"coherent Designer","address_line_1":"06692 Horace Canyon","address_line_2":"Suite 392","city":"Port Daisha","state":"NC","zip":"57396-2716","longitude":"-80.2462","latitude":"4.0350","neighborhood":"transparent","website":"https://bartholome.com","description":"Autem et velit ullam qui ad et. Odit aut deleniti possimus sed cupiditate voluptatibus quos aut sunt. Id doloremque quos asperiores. Sint corporis dolore quia sapiente repudiandae repellat blanditiis et. Architecto vel esse exercitationem eligendi quidem optio officiis repellat ut.","hours":"Suite 188","phone_number":"569-460-1775","price_range":"$$$","review_average":null,"review_count":485,"tags":["alarm","application","monitor","alarm","sensor","firewall","matrix","protocol","protocol","bandwidth","matrix","interface","interface","application","panel","hard drive","matrix","panel","array","sensor","transmitter","panel","alarm","application","monitor"]},{"id":56,"name":"scalable Berkshire","address_line_1":"96558 Linnie Spurs","address_line_2":null,"city":"Schaeferbury","state":"KS","zip":"82906-7704","longitude":"-33.8510","latitude":"-0.4630","neighborhood":"generating","website":"https://major.org","description":"Nobis at autem. Sit nesciunt omnis ut omnis enim. Architecto et fugit laborum nam impedit animi ratione. Nam velit necessitatibus ratione ea libero qui sunt. Quas ut sunt repellat. Enim eius aut aut ut.","hours":"Suite 578","phone_number":"1-079-159-4129","price_range":"$$","review_average":null,"review_count":1710,"tags":["bus","bus","matrix","matrix","protocol","bus","interface","transmitter","bandwidth","card","transmitter","port","hard drive","panel","interface"]},{"id":57,"name":"Gorgeous contextually-based","address_line_1":"5687 Pagac Path","address_line_2":null,"city":"South Nella","state":"NM","zip":"77967-8401","longitude":"-24.2910","latitude":"-20.1446","neighborhood":"Naira","website":"http://andreane.info","description":"Consequatur quia doloremque id earum enim non culpa. Sed laboriosam enim et delectus numquam ea. Cumque odio magnam accusantium. Suscipit ea corporis optio possimus repellendus. Doloremque consequuntur enim. Consectetur natus non illo accusamus quibusdam possimus laboriosam commodi voluptatum.","hours":"Apt. 110","phone_number":"466.557.6972","price_range":"$$","review_average":null,"review_count":249,"tags":["array","array","transmitter","monitor","capacitor","bandwidth","system","capacitor","bandwidth","port","card","hard drive","bandwidth","card","microchip","matrix","sensor"]},{"id":58,"name":"Tanzanian Shilling Corners","address_line_1":"5659 Benny Stream","address_line_2":"Suite 053","city":"Schulistside","state":"NE","zip":"23672-9515","longitude":"-6.8886","latitude":"-36.4158","neighborhood":"Architect Home Loan Account application Chief","website":"https://adrien.info","description":"Tempora velit ut. Doloremque ducimus nemo magni cupiditate rerum. Ut ut voluptatibus voluptate tempore. A tenetur quidem blanditiis quia dolores officiis dolorem. Et et qui modi suscipit et dolores corrupti neque expedita. Odio quasi minima totam.","hours":"Apt. 342","phone_number":"216.518.6211 x9930","price_range":"$$$","review_average":null,"review_count":1258,"tags":["alarm","firewall","card","feed","alarm","array","firewall","circuit","driver","array","capacitor","alarm","microchip","interface","transmitter","port","monitor","bandwidth","feed","circuit","capacitor","monitor","panel","bus","microchip","interface","monitor","feed","transmitter","hard drive","bandwidth"]},{"id":59,"name":"Dynamic Object-based Pants","address_line_1":"42640 Arvilla Via","address_line_2":null,"city":"North Christberg","state":"WA","zip":"94393","longitude":"55.8386","latitude":"69.1087","neighborhood":"Pants","website":"https://keagan.org","description":"Possimus cum quam eos quis reprehenderit deserunt sit ea magnam. Id atque quidem. Pariatur sapiente assumenda facilis ut minus sed harum. Aut amet doloremque harum est quasi pariatur non.","hours":"Apt. 765","phone_number":"860-047-1504","price_range":"","review_average":null,"review_count":918,"tags":["array","firewall","bus","bus","system","firewall","circuit","hard drive","feed","hard drive","bus","feed","circuit","microchip"]},{"id":60,"name":"quantify Kids withdrawal","address_line_1":"1830 Kelsie Street","address_line_2":null,"city":"Gibsonland","state":"OH","zip":"98210-6033","longitude":"-163.5904","latitude":"18.6422","neighborhood":"Indiana overriding","website":"https://brady.biz","description":"Repellendus sit ut dolorem tempore. Aperiam nam expedita harum dolor tempore. Harum distinctio velit consequatur tempore. Cumque esse quaerat ad est. Ea perferendis cumque. Et eum asperiores animi eius molestiae ipsum enim aut officia.","hours":"Suite 222","phone_number":"314.969.2670","price_range":"$$$$$","review_average":null,"review_count":206,"tags":["sensor","port","alarm","alarm","system","protocol","transmitter","circuit","firewall","hard drive","port","alarm","monitor","system","alarm","protocol","pixel","firewall","pixel","bandwidth","program","driver","card","protocol","card","panel","panel","feed","array","bandwidth","hard drive","microchip","system","system"]},{"id":61,"name":"gold","address_line_1":"283 Emard Forges","address_line_2":"Suite 039","city":"North Javon","state":"AK","zip":"43561","longitude":"159.8387","latitude":"34.9442","neighborhood":"Oregon Cayman Islands XSS","website":"https://tillman.com","description":"Explicabo ea possimus iste ipsam facere vel fugit corporis. Eum adipisci est molestias ad impedit dolorem fugiat. Quaerat tenetur sint explicabo expedita et in rerum.","hours":"Apt. 960","phone_number":"435-322-2849 x4135","price_range":"$","review_average":null,"review_count":61,"tags":["alarm","bandwidth","alarm","matrix","bus","protocol","alarm","bus","microchip","bandwidth","system","application","microchip","bus","feed","interface","matrix","matrix","program","port","pixel","feed","sensor","port"]},{"id":62,"name":"Manager multi-byte Borders","address_line_1":"7487 Spinka Island","address_line_2":null,"city":"Hyatttown","state":"MN","zip":"08566-0384","longitude":"-53.8888","latitude":"75.1831","neighborhood":"Baht","website":"https://karli.info","description":"Animi nulla sed veniam consectetur aperiam earum. Aut omnis aut fugit consequatur perferendis. Fuga aliquid voluptas ratione cupiditate fuga.","hours":"Apt. 656","phone_number":"1-782-173-3043 x99872","price_range":"$$$","review_average":null,"review_count":1296,"tags":["hard drive","array","driver","application","port","array","capacitor","transmitter","driver","microchip","system","bus","matrix","hard drive","monitor","program","bus","protocol","protocol","microchip","firewall","hard drive","interface","application","port","port","protocol","program","capacitor","circuit","capacitor","circuit","program","program","port","circuit","microchip","feed","bandwidth"]},{"id":63,"name":"sensor","address_line_1":"3101 Walter Road","address_line_2":null,"city":"West Dwight","state":"CA","zip":"25493-0221","longitude":"-7.1914","latitude":"-23.4314","neighborhood":"indexing","website":"https://adelia.com","description":"Praesentium quis omnis blanditiis. Nihil laudantium animi ut aut. Consequatur dolores consequuntur numquam vel tenetur deserunt soluta.","hours":"Suite 657","phone_number":"635-144-8624","price_range":"$$$$","review_average":null,"review_count":799,"tags":["card","feed","sensor","array","transmitter","application","sensor","matrix","pixel","circuit","bus","driver","capacitor","firewall","interface","sensor","feed","bandwidth","microchip","bus","port","bandwidth","bus","driver","program"]},{"id":64,"name":"metrics backing up","address_line_1":"7432 Obie Mission","address_line_2":"Apt. 711","city":"Claudiaberg","state":"LA","zip":"17628-4119","longitude":"-38.3026","latitude":"-21.1932","neighborhood":"Australia","website":"https://antonetta.org","description":"Omnis perspiciatis consequuntur perferendis maxime et voluptas cum ea. Corrupti nihil dolore. Ex veniam ratione recusandae. Doloribus sit sed et sed iure perspiciatis quia reprehenderit. Qui repellat labore.","hours":"Suite 447","phone_number":"1-457-163-0552","price_range":"$$$$","review_average":null,"review_count":1642,"tags":["monitor","circuit","microchip","microchip","transmitter","protocol","sensor","bus","feed","port"]},{"id":65,"name":"mission-critical","address_line_1":"167 Francesco Walks","address_line_2":null,"city":"Alfmouth","state":"AK","zip":"12061","longitude":"75.1342","latitude":"-71.0921","neighborhood":"Falls Customer parsing microchip","website":"http://bianka.org","description":"Ratione et suscipit cumque consequuntur quam dolorem velit sunt dolores. Sint neque ut. Eos ea molestiae dolor sint aspernatur consectetur. Saepe facere nulla cum perferendis enim.","hours":"Apt. 299","phone_number":"740-547-0685 x168","price_range":"","review_average":null,"review_count":710,"tags":["driver","port","card","alarm","capacitor","card","matrix","card","matrix","port"]},{"id":66,"name":"compress Handcrafted","address_line_1":"59033 Darlene View","address_line_2":null,"city":"Nonashire","state":"MT","zip":"59228","longitude":"9.6892","latitude":"89.3022","neighborhood":"middleware wireless executive Cloned","website":"https://demarco.biz","description":"Mollitia aperiam quae accusantium assumenda. Aut aut dolores quam deleniti amet repellendus tenetur omnis. Delectus quasi praesentium et voluptates sunt voluptatem sequi. Laboriosam veritatis explicabo eligendi sit iure quis.","hours":"Suite 040","phone_number":"672-458-6021 x39606","price_range":"$$$","review_average":null,"review_count":590,"tags":["driver","interface","firewall","firewall","transmitter","application","interface","alarm","port","array","panel","monitor","driver","hard drive","interface","microchip","pixel","circuit","capacitor","alarm","system","application","transmitter","feed","capacitor","feed","pixel","array","matrix","sensor","program"]},{"id":67,"name":"one-to-one visualize","address_line_1":"25408 Ullrich Walks","address_line_2":"Suite 075","city":"New Anibal","state":"AL","zip":"87610-7925","longitude":"13.6802","latitude":"58.1964","neighborhood":"Generic Cotton Bike Metal","website":"https://cecilia.biz","description":"Incidunt recusandae culpa quos. A quo quasi est voluptates molestias voluptates rerum. Quisquam voluptas amet molestiae totam quis reprehenderit sapiente numquam. Cum nihil totam consequuntur et veniam eaque aut laborum ut. Sint rerum fuga aliquam culpa quod dolor quasi. Accusantium sit alias quaerat dolore.","hours":"Apt. 151","phone_number":"(497) 137-2776 x37414","price_range":"$","review_average":null,"review_count":764,"tags":["driver","card","bus","interface","port","alarm","application","interface","bus","pixel","panel","feed","bandwidth","pixel","transmitter","bus","protocol","bus","driver","pixel","capacitor","pixel","protocol","monitor","array","circuit","hard drive","capacitor","bus"]},{"id":68,"name":"upward-trending database","address_line_1":"93347 Rowe Drive","address_line_2":null,"city":"South Dorisburgh","state":"NM","zip":"23116-4466","longitude":"22.6018","latitude":"45.7022","neighborhood":"Agent","website":"http://fernando.net","description":"Cumque libero dignissimos maxime ab voluptas consequuntur. Consequatur dicta harum voluptas voluptatem aut non inventore possimus. Temporibus sapiente cupiditate illum aut qui illo quibusdam nobis consequatur.","hours":"Apt. 580","phone_number":"(752) 067-4027 x7379","price_range":"$$$$$","review_average":null,"review_count":1791,"tags":["firewall","matrix","bus","feed","firewall","protocol","transmitter","bandwidth","alarm","microchip","hard drive","circuit","array"]},{"id":69,"name":"Practical withdrawal","address_line_1":"948 Haley Centers","address_line_2":null,"city":"South Maryseborough","state":"HI","zip":"80845","longitude":"139.7925","latitude":"40.6530","neighborhood":"North Dakota","website":"http://quinn.info","description":"Et rerum ut. Et et aut sit recusandae eum officia voluptas fugit ipsa. Velit incidunt sint veniam maxime accusantium consectetur eos. Fugiat optio nobis. Consequuntur hic voluptatem. Quos in aspernatur incidunt qui voluptas eligendi quas.","hours":"Apt. 376","phone_number":"967.670.6541 x12782","price_range":"$$$","review_average":null,"review_count":498,"tags":["capacitor","capacitor","system","hard drive","circuit","microchip","system","matrix","capacitor","panel","program","capacitor","card","hard drive","firewall"]},{"id":70,"name":"XML brand payment","address_line_1":"8860 Kunze Fall","address_line_2":"Suite 531","city":"Lake Mina","state":"TX","zip":"97408-7443","longitude":"92.2797","latitude":"-59.6533","neighborhood":"Frozen turquoise Seychelles Metal","website":"https://toy.info","description":"Reprehenderit eum quo voluptatem expedita itaque laudantium sint. Consectetur magni sit. Et laudantium eligendi numquam tempore sed esse facilis maxime aut.","hours":"Apt. 658","phone_number":"1-280-305-9871 x865","price_range":"$$$$$","review_average":null,"review_count":1435,"tags":["transmitter","program","sensor","interface","pixel","protocol","circuit","system","driver","bandwidth","feed","alarm","circuit","application","capacitor","monitor","protocol","capacitor","monitor","bus","feed","feed","sensor","port","microchip","firewall","driver","protocol","pixel","application","alarm","array","microchip","matrix","protocol","driver","capacitor","matrix","system","firewall"]},{"id":71,"name":"cross-platform Chief Alaska","address_line_1":"417 Dale Prairie","address_line_2":null,"city":"Huelburgh","state":"VT","zip":"08228-5327","longitude":"151.0119","latitude":"-39.6845","neighborhood":"Algeria Tools yellow Berkshire","website":"http://amanda.org","description":"Aspernatur pariatur ut omnis error. Laboriosam id optio sequi quia ab aliquam cumque tempore. Officia mollitia rerum voluptate voluptatem repudiandae est aliquid iure et. Rerum aut quisquam nostrum sit incidunt.","hours":"Apt. 168","phone_number":"398.759.5571 x315","price_range":"$$$$$","review_average":null,"review_count":1291,"tags":["card","bandwidth"]},{"id":72,"name":"Consultant Credit Card Account back-end","address_line_1":"61489 Viva Harbor","address_line_2":null,"city":"North Sadie","state":"NE","zip":"07323","longitude":"-107.0252","latitude":"14.4660","neighborhood":"solutions Bike Avon Fantastic","website":"https://maximo.biz","description":"Vel tenetur mollitia praesentium. Tempore numquam debitis reiciendis minus dicta. Voluptatem quia ipsam autem quam corporis tempora aspernatur eaque. Vel molestias debitis voluptas ea est et ut dolore.","hours":"Apt. 164","phone_number":"916.365.8910 x00213","price_range":"$$","review_average":null,"review_count":725,"tags":["protocol","monitor","protocol","capacitor","interface","alarm","protocol","circuit","system","firewall","driver","hard drive","monitor","matrix","firewall","interface","panel","transmitter","capacitor","circuit","monitor","transmitter","interface","card","bandwidth","capacitor","firewall","transmitter","firewall","hard drive","matrix","hard drive","driver","capacitor","protocol"]},{"id":73,"name":"plug-and-play incremental","address_line_1":"606 Schiller Green","address_line_2":"Apt. 944","city":"New Sonny","state":"KY","zip":"75769-5725","longitude":"112.6866","latitude":"76.1470","neighborhood":"GB","website":"https://luther.info","description":"Vero dolor eaque consectetur voluptatem officiis corporis dolor. Soluta itaque assumenda aliquid commodi sunt assumenda illum numquam dolorem. Sunt qui temporibus voluptatibus et rerum assumenda nostrum. Saepe est at alias dolores. Itaque rerum consequuntur illo voluptatem distinctio amet. Et numquam iure sed omnis ad odit adipisci non itaque.","hours":"Suite 081","phone_number":"615.082.5225 x50610","price_range":"$$$$","review_average":null,"review_count":827,"tags":["bandwidth","circuit","system","driver","protocol","sensor"]},{"id":74,"name":"circuit Jewelery","address_line_1":"353 Fritsch Summit","address_line_2":null,"city":"Boylestad","state":"AR","zip":"04917","longitude":"-44.2943","latitude":"73.1784","neighborhood":"Falls Burgs Fish human-resource","website":"https://adan.net","description":"Est nihil eos et. Vel consequatur sed. Sit dolores recusandae sint eos sit. Nesciunt laborum nobis modi iusto ullam ipsa atque quisquam. Sed eligendi cumque.","hours":"Suite 055","phone_number":"1-318-313-1418 x3654","price_range":"","review_average":null,"review_count":1050,"tags":["pixel","sensor","firewall","bus","bandwidth","driver","circuit","driver","program","microchip","port","firewall","port","sensor","application","circuit","firewall","sensor","circuit","feed","alarm","bandwidth","port","bandwidth","driver","driver","feed"]},{"id":75,"name":"haptic Cross-group turn-key","address_line_1":"643 Ortiz Crescent","address_line_2":null,"city":"West Tate","state":"CO","zip":"51086","longitude":"-162.0953","latitude":"-60.9100","neighborhood":"24/7 hardware reciprocal","website":"https://marlin.info","description":"Enim dolores eius eos repellendus. Autem culpa autem consequatur eos minima ratione autem non ratione. Corrupti voluptatem laudantium est recusandae exercitationem similique.","hours":"Apt. 236","phone_number":"(531) 939-1521 x2644","price_range":"$$$$","review_average":null,"review_count":1584,"tags":["driver","feed","card","card","application","protocol","port","circuit","firewall","firewall","protocol","application","matrix","port","card","card","hard drive"]},{"id":76,"name":"Chilean Peso Unidades de fomento Licensed","address_line_1":"316 Trantow Crest","address_line_2":"Apt. 002","city":"Gleasonbury","state":"ID","zip":"82533","longitude":"8.0066","latitude":"-50.0741","neighborhood":"Massachusetts AI Idaho","website":"http://fredy.biz","description":"Corrupti temporibus quisquam dignissimos. Quia saepe et eligendi culpa exercitationem aut expedita maiores odit. Magnam corporis tempore nemo. Saepe molestias accusamus aspernatur.","hours":"Suite 195","phone_number":"(825) 903-1277","price_range":"$$$$","review_average":null,"review_count":629,"tags":["firewall","firewall","transmitter","driver","bus","protocol","firewall","monitor","microchip","hard drive","program","pixel","panel","circuit","bus","pixel","matrix","sensor","driver","port","matrix","card","bus","bus","bus","system","port","bandwidth","driver","circuit","driver","system","pixel","feed","card","pixel","circuit","circuit","transmitter","bandwidth","interface","alarm","interface","array","driver"]},{"id":77,"name":"Cambridgeshire","address_line_1":"159 Gleason Pine","address_line_2":null,"city":"Hammesfort","state":"SD","zip":"52561-7336","longitude":"112.3920","latitude":"-33.6365","neighborhood":"Iowa Sports vertical cross-platform","website":"http://clair.info","description":"Minus nostrum officiis distinctio sunt autem. Et quod cum adipisci. Pariatur dolorem facilis molestias saepe deserunt suscipit quos.","hours":"Apt. 049","phone_number":"(441) 012-7513 x4425","price_range":"$","review_average":null,"review_count":1094,"tags":["monitor","monitor","matrix","matrix","driver","microchip","application","pixel","capacitor","sensor","system","panel","capacitor","driver","monitor","capacitor","microchip","sensor","interface","array","bus","interface","capacitor","bus","interface","program","hard drive","matrix","interface"]},{"id":78,"name":"haptic card invoice","address_line_1":"218 Garth Mall","address_line_2":null,"city":"North Billy","state":"LA","zip":"27542-9068","longitude":"116.2292","latitude":"-59.3552","neighborhood":"withdrawal","website":"https://bradley.com","description":"Nobis nostrum sit molestiae similique enim. Earum et ea ut distinctio. Repellat voluptatibus aut ut et quo deserunt aut. Voluptas qui reiciendis. Deleniti soluta deleniti maxime rem tenetur ut molestiae numquam.","hours":"Suite 599","phone_number":"1-377-371-5619 x714","price_range":"$$$","review_average":null,"review_count":1214,"tags":["matrix","matrix","microchip","card","interface","array","matrix","bus","matrix","alarm","bus","array","system","circuit","hard drive","protocol","card","program","matrix","bandwidth","microchip","program","bus","matrix","feed","pixel","firewall","panel","circuit","circuit","bandwidth","monitor","array"]},{"id":79,"name":"transmitter Cheese","address_line_1":"69654 Theodore Lock","address_line_2":"Suite 640","city":"North Cristobal","state":"OK","zip":"74939-5831","longitude":"35.0231","latitude":"-3.4052","neighborhood":"infomediaries","website":"http://taya.info","description":"Non labore consequuntur. Eligendi doloremque laudantium. Nihil velit a quam laborum id quia voluptates.","hours":"Apt. 712","phone_number":"(102) 771-4320 x30681","price_range":"$$$$$","review_average":null,"review_count":1847,"tags":["circuit","monitor","application","program","panel","matrix","pixel","sensor","card","hard drive","port","array","system","transmitter","hard drive","port","sensor","bandwidth","microchip","feed","monitor","interface","capacitor"]},{"id":80,"name":"Producer","address_line_1":"71781 Schuster Motorway","address_line_2":null,"city":"South Laurynberg","state":"OK","zip":"51243-7525","longitude":"91.6297","latitude":"-40.2684","neighborhood":"grey Rustic PCI Group","website":"http://oswaldo.org","description":"Enim tempora ratione ut rem consectetur debitis. Eveniet harum exercitationem quasi rem suscipit sint. Ex tenetur et atque. Nam iure voluptatum nisi sed laudantium et. Quibusdam eum distinctio dolorem explicabo vero exercitationem veritatis.","hours":"Apt. 463","phone_number":"632.475.3535 x76656","price_range":"$$$$$","review_average":null,"review_count":918,"tags":["panel","program","application","pixel","card","hard drive","capacitor","monitor","alarm","protocol","bandwidth","firewall","bus","card","bandwidth","feed","system","firewall","alarm","bandwidth","card","feed","microchip","panel","circuit","protocol","capacitor","firewall","transmitter","bandwidth","card","firewall","pixel","matrix","array"]},{"id":81,"name":"Costa Rica","address_line_1":"23804 Hamill Wall","address_line_2":null,"city":"Marshallville","state":"AR","zip":"38960","longitude":"-105.5664","latitude":"-74.7086","neighborhood":"invoice Generic quantifying Borders","website":"http://beulah.info","description":"Aperiam suscipit magnam autem ea. Cumque accusamus consequuntur et odit est et ab natus amet. Distinctio nihil repellendus quidem consequuntur. Recusandae et ad voluptas sit deserunt.","hours":"Suite 544","phone_number":"460.122.8748","price_range":"$$$$","review_average":null,"review_count":1749,"tags":["port","port","bus","matrix","bus","monitor","matrix","card","circuit","interface","circuit","interface","card","driver","circuit","port","pixel","circuit","bus","alarm","feed","alarm","hard drive","firewall","bus","firewall","port","port","matrix","transmitter","port","program","program","interface","feed","firewall","pixel","hard drive","system","bus","transmitter","alarm","system","transmitter","panel","array","port","program"]},{"id":82,"name":"clear-thinking","address_line_1":"92397 Maribel Corner","address_line_2":"Apt. 562","city":"Port Karlville","state":"MI","zip":"26585-7012","longitude":"114.4022","latitude":"66.4132","neighborhood":"Directives Developer","website":"https://ralph.net","description":"Saepe nobis doloribus laudantium tempora maiores. Nostrum voluptas doloremque eum expedita laborum. Rem doloremque aut accusamus ea facilis ab corrupti. Laboriosam placeat incidunt temporibus enim recusandae aliquid quia delectus. Ad blanditiis occaecati et explicabo.","hours":"Suite 810","phone_number":"556.851.0642 x38825","price_range":"$","review_average":null,"review_count":276,"tags":["capacitor","capacitor","bus","sensor","system","capacitor","bus","feed","program","monitor","microchip"]},{"id":83,"name":"matrix systems matrix","address_line_1":"40508 Pagac Prairie","address_line_2":null,"city":"Lake Adrianna","state":"CA","zip":"49763-3273","longitude":"-142.0699","latitude":"82.7588","neighborhood":"Ball","website":"https://ellis.net","description":"Tempore eius dolores quisquam alias. Ipsam culpa eveniet ratione dolorum neque alias. Error in magnam autem voluptas et praesentium sit dicta.","hours":"Apt. 333","phone_number":"844.170.2512","price_range":"$$","review_average":null,"review_count":622,"tags":["sensor","sensor","pixel","interface","protocol","application","circuit","bus","firewall","hard drive","application","alarm","system","pixel","bandwidth"]},{"id":84,"name":"matrix","address_line_1":"60826 Mozell Union","address_line_2":null,"city":"West Zaneberg","state":"CA","zip":"66289","longitude":"70.8371","latitude":"-60.1064","neighborhood":"synthesize teal Tala Money Market Account","website":"http://zaria.name","description":"Voluptatum consequatur qui rerum perferendis voluptatem dolor consequatur asperiores. Aperiam odit atque quia esse aperiam sint eveniet quis. Corporis expedita nulla sed. Sunt velit voluptas commodi esse numquam explicabo.","hours":"Apt. 437","phone_number":"114-805-4598 x94438","price_range":"$","review_average":null,"review_count":563,"tags":["feed","port","array","driver","capacitor","pixel","system","panel","circuit"]},{"id":85,"name":"Investment Account","address_line_1":"22018 Sadye Brooks","address_line_2":"Apt. 792","city":"North Seantown","state":"PA","zip":"33003-0684","longitude":"-176.1667","latitude":"76.9877","neighborhood":"deposit New York monitoring","website":"http://hardy.biz","description":"Alias sapiente consectetur quibusdam hic cum veniam quibusdam consequatur. Rerum maxime impedit ipsum necessitatibus rem et consequuntur veniam. Dolorem dignissimos ducimus suscipit. Eos iure nisi quia maxime.","hours":"Apt. 559","phone_number":"(125) 494-0760 x6163","price_range":"$$$$$","review_average":null,"review_count":630,"tags":["matrix","matrix","bus","firewall","protocol"]},{"id":86,"name":"models Ohio","address_line_1":"93886 Barrows Tunnel","address_line_2":null,"city":"Mullerton","state":"ID","zip":"75940-9260","longitude":"78.3340","latitude":"-24.6604","neighborhood":"hacking Toys Intelligent payment","website":"http://john.info","description":"Deserunt excepturi reiciendis soluta velit molestiae sed. Excepturi accusantium quia modi eum rerum sint neque quis. Vitae quis molestiae. Optio in maxime. Sed ipsam praesentium quae inventore laborum.","hours":"Suite 748","phone_number":"1-210-638-0943","price_range":"$$","review_average":null,"review_count":1315,"tags":["driver","microchip","array","bandwidth","circuit","matrix","application","card","application","card","array","matrix","bus","interface","bandwidth","sensor","sensor","feed","array","program","card","capacitor","port","protocol","alarm","program","feed","capacitor","microchip","program","program","program","matrix","firewall","circuit","pixel","protocol","matrix","panel","circuit","transmitter","hard drive","monitor","firewall"]},{"id":87,"name":"Missouri San Marino Licensed","address_line_1":"4841 Haag Drives","address_line_2":null,"city":"Zulauffurt","state":"AL","zip":"85166","longitude":"165.0760","latitude":"-54.0378","neighborhood":"vertical overriding","website":"http://scot.net","description":"Vel voluptas adipisci sint quia aut ipsa voluptatem. Debitis ut voluptatibus amet. Cumque corporis ratione et voluptatem perspiciatis sint consequatur.","hours":"Suite 782","phone_number":"(508) 820-3775 x198","price_range":"$$$$","review_average":null,"review_count":618,"tags":[]},{"id":88,"name":"interface Nakfa Games","address_line_1":"7564 Stehr Common","address_line_2":"Apt. 931","city":"New Bo","state":"AR","zip":"77707","longitude":"-55.1968","latitude":"77.8597","neighborhood":"Belgium convergence connect Euro","website":"http://cassandre.biz","description":"Soluta illo quia. Fugiat hic quod adipisci dolores illum numquam fugit. Nisi ut dolores ab. Necessitatibus quo consectetur quidem accusamus maxime ipsam eum quidem voluptatem. Sit quibusdam at repellat aliquam illum non excepturi nihil officiis.","hours":"Apt. 051","phone_number":"(270) 875-0786 x392","price_range":"$$$$","review_average":null,"review_count":1485,"tags":["bandwidth","hard drive","interface","circuit","bandwidth","bus","monitor","capacitor","port","array","driver","port","firewall","sensor","alarm","matrix","feed"]},{"id":89,"name":"Trafficway Berkshire","address_line_1":"17288 Ludwig Pine","address_line_2":null,"city":"South Kavonborough","state":"WA","zip":"50028-4902","longitude":"-84.1570","latitude":"-26.9646","neighborhood":"GB Saint Lucia","website":"http://aliyah.biz","description":"Non facere et quam quasi laborum optio quis cum vitae. Sapiente totam eaque sapiente et cupiditate nemo aut. Aut sed ex dolorum voluptatem doloribus vero. Qui ipsa voluptatem voluptatem accusamus deserunt quam qui totam repudiandae.","hours":"Apt. 636","phone_number":"1-824-676-8808","price_range":"$$$$","review_average":null,"review_count":25,"tags":["circuit","program","feed","panel","capacitor","driver","system","firewall","application"]},{"id":90,"name":"copy","address_line_1":"09407 Shania Lodge","address_line_2":null,"city":"Klingside","state":"ID","zip":"98731","longitude":"110.6435","latitude":"-22.9294","neighborhood":"Cambridgeshire Unbranded Legacy Books","website":"http://hailee.com","description":"Quia sapiente eum velit reiciendis libero temporibus quis tempora ipsam. Totam minus vitae aut iste. Rerum rem reprehenderit qui accusantium consequuntur modi minima. Qui voluptatem accusamus. Voluptas sit aut dicta. Rem consequatur tempore.","hours":"Apt. 188","phone_number":"132-439-6756 x41212","price_range":"$$","review_average":null,"review_count":1009,"tags":["transmitter","hard drive","application"]},{"id":91,"name":"website","address_line_1":"52033 Jacobi Hill","address_line_2":"Suite 414","city":"Buckridgestad","state":"IL","zip":"23238-3245","longitude":"54.6688","latitude":"69.6080","neighborhood":"Metal","website":"http://simeon.info","description":"Consequatur voluptate totam perspiciatis accusantium omnis sapiente. Est debitis ullam qui beatae voluptatem omnis. Impedit voluptatem aut.","hours":"Suite 871","phone_number":"291.203.2055 x2069","price_range":"","review_average":null,"review_count":1610,"tags":["program","panel","sensor","bandwidth","port","bus","monitor","system","application","panel","application","transmitter","circuit","system","alarm","sensor","alarm","bus","microchip","matrix","monitor","array","port","hard drive","card","monitor","alarm","pixel","firewall","panel","firewall","program","monitor","interface","array","sensor","capacitor"]},{"id":92,"name":"maximize","address_line_1":"39889 Johnston Groves","address_line_2":null,"city":"Kuhicland","state":"GA","zip":"65745-5068","longitude":"-0.9058","latitude":"75.4516","neighborhood":"Berkshire Health Chicken Sri Lanka","website":"https://tanner.com","description":"Officia ullam voluptatem eos provident dolores aut non. Sunt voluptas cum. Laudantium nihil recusandae minima amet. Quas et magnam distinctio sapiente. Sunt praesentium eos deserunt beatae consequatur ut numquam omnis ut. Sit quia sint odio et voluptas sunt officia ut.","hours":"Apt. 548","phone_number":"617.920.6140","price_range":"$$","review_average":null,"review_count":1598,"tags":["circuit","firewall","bus","transmitter","alarm","capacitor","panel","bandwidth","feed","program","monitor","panel","system"]},{"id":93,"name":"AGP methodology quantifying","address_line_1":"86635 Cullen Prairie","address_line_2":null,"city":"South Morgantown","state":"NV","zip":"70312-7134","longitude":"80.2106","latitude":"62.7444","neighborhood":"adapter RSS Organized Bike","website":"https://lucienne.info","description":"Molestiae vitae officia repudiandae. Asperiores corrupti aliquam ratione saepe illum et cum. Et provident dolor eos.","hours":"Apt. 393","phone_number":"(461) 850-5510 x657","price_range":"","review_average":null,"review_count":121,"tags":["circuit","protocol","program","capacitor","driver","card","bandwidth","array","feed","alarm","sensor","alarm"]},{"id":94,"name":"extranet visualize invoice","address_line_1":"4915 Botsford Row","address_line_2":"Suite 385","city":"Hageneston","state":"NM","zip":"66381-9713","longitude":"-138.0890","latitude":"40.0215","neighborhood":"Virginia synthesize Coordinator solid state","website":"http://karine.biz","description":"Atque sit provident quis voluptatum. Eos non sunt quis excepturi qui. Enim eaque nihil dignissimos et.","hours":"Suite 155","phone_number":"(077) 120-6095 x3296","price_range":"$$$$$","review_average":null,"review_count":85,"tags":["monitor","matrix","circuit","hard drive","transmitter","sensor","alarm","feed","array","card","capacitor","feed","transmitter","matrix","card","alarm","card","card","monitor","application","panel","array","microchip","application","protocol","pixel","port","panel","system","bandwidth","array","transmitter","pixel","program","port","monitor","program","pixel","matrix","port","program","application","protocol","array","alarm","feed","capacitor"]},{"id":95,"name":"Fresh Infrastructure","address_line_1":"7813 Armani Locks","address_line_2":null,"city":"Stokesborough","state":"MT","zip":"10890","longitude":"-39.9504","latitude":"-16.5551","neighborhood":"portals Computer","website":"https://dariana.com","description":"Libero quae accusamus odio debitis aliquam omnis. Qui sit rerum doloribus molestiae optio dolorum. Et non autem ut rerum. Non repellat explicabo quasi enim quae ut at qui.","hours":"Suite 465","phone_number":"(739) 337-1218","price_range":"$$","review_average":null,"review_count":194,"tags":["matrix","panel","driver","program","array","array","system","circuit","sensor","card","port","interface","array","system","array","alarm","array","firewall","monitor","alarm","panel","alarm","alarm","interface","program","microchip","pixel","firewall","transmitter","bus","feed","hard drive","protocol"]},{"id":96,"name":"deliverables","address_line_1":"174 Kassulke Motorway","address_line_2":null,"city":"Maraburgh","state":"VT","zip":"43913","longitude":"101.5139","latitude":"50.3007","neighborhood":"Infrastructure Berkshire bluetooth connecting","website":"http://etha.net","description":"Eligendi a ut. Magni aut facere laborum. Iste ducimus dicta accusantium fugiat tenetur minima excepturi.","hours":"Suite 982","phone_number":"(879) 004-8453","price_range":"$$$","review_average":null,"review_count":1990,"tags":["interface","transmitter","card","array","bandwidth","firewall","firewall","microchip","application","system","panel","port","application","panel","port","system","port","array","circuit","bandwidth","port","interface","port","capacitor","driver","protocol","port","protocol","port","card","alarm","driver","card","feed","capacitor","transmitter","driver"]},{"id":97,"name":"yellow rich","address_line_1":"85519 Keebler Drive","address_line_2":"Apt. 751","city":"East Carterfort","state":"SD","zip":"70674-6553","longitude":"-158.2539","latitude":"14.7394","neighborhood":"out-of-the-box conglomeration SMS","website":"https://pinkie.name","description":"Quia placeat exercitationem odit sequi accusantium voluptates facere eos doloribus. Blanditiis expedita mollitia a quia sunt eos ut. Illum est et.","hours":"Suite 686","phone_number":"524.870.9656","price_range":"$$$$$","review_average":null,"review_count":1063,"tags":["protocol","driver","protocol","firewall","feed","port","microchip","pixel","feed","port","application","port","capacitor","firewall","port","monitor","program","bus","driver","hard drive","program","transmitter","array","panel","protocol","application","bus","sensor","monitor","driver","firewall","alarm"]},{"id":98,"name":"Distributed Granite Credit Card Account","address_line_1":"8923 Daren Corner","address_line_2":null,"city":"East Verlieview","state":"GA","zip":"01465-9777","longitude":"-30.8263","latitude":"-12.8904","neighborhood":"Cliff Generic Wooden Sausages yellow Denar","website":"https://alexandria.com","description":"Numquam architecto officiis reiciendis debitis iusto. Numquam tempora voluptatem. Porro exercitationem soluta. At facere aut qui soluta dolor est possimus sequi veniam. Debitis sed qui officiis iure perspiciatis necessitatibus architecto.","hours":"Apt. 543","phone_number":"(804) 583-5198 x3331","price_range":"$","review_average":null,"review_count":558,"tags":["system","firewall"]},{"id":99,"name":"copy Bike Guam","address_line_1":"34849 Morar Causeway","address_line_2":null,"city":"North Oswaldo","state":"TN","zip":"54925-6227","longitude":"44.3406","latitude":"-6.6333","neighborhood":"task-force","website":"http://iva.name","description":"In minus aspernatur in id perspiciatis sunt vero. Et quis temporibus ipsum voluptas placeat iste error ut enim. Dicta perspiciatis reprehenderit ratione. Est voluptatem eum consequuntur magni consequatur sunt nihil esse. Incidunt fuga corporis vitae quas consequatur similique quis id.","hours":"Apt. 835","phone_number":"107.934.4618","price_range":"$$$","review_average":null,"review_count":191,"tags":["transmitter","monitor","alarm","bandwidth","system","program","card","array","capacitor","protocol","program","program","circuit","transmitter","capacitor","application","capacitor","monitor","application","program","application","firewall","pixel","protocol","microchip","hard drive","port","hard drive","hard drive","pixel","card","feed"]},{"id":100,"name":"Surinam Dollar generate","address_line_1":"998 Lowe River","address_line_2":"Suite 841","city":"Lake Nathanaelbury","state":"KY","zip":"29209-8727","longitude":"-98.5832","latitude":"-75.6306","neighborhood":"orchestration systems Innovative Officer","website":"http://derick.com","description":"Accusamus veniam velit eum eligendi. Sed laborum dolorem omnis libero ullam quos reiciendis ullam. Id doloremque optio incidunt quidem. Rem nesciunt sit autem deleniti et fugiat vel dolores non. Voluptas magni nisi quos. Nam dolorem atque dicta est exercitationem in necessitatibus.","hours":"Apt. 249","phone_number":"793.384.1188","price_range":"","review_average":null,"review_count":1085,"tags":["bandwidth","matrix","array","sensor","bandwidth","panel","feed","application","system","interface","firewall","hard drive","microchip","sensor"]}]